Index,City ID,City Name,Cloudiness,Country,Date,Humidity,Lat,Lng,Max Temp,Wind Speed
0,2077895,Alice Springs,0,AU,1594512722,61,-23.7,133.88,11.11,2.1
1,4030556,Rikitea,22,PF,1594512707,70,-23.12,-134.97,20.92,6.87
2,2163355,Hobart,75,AU,1594512733,93,-42.88,147.33,8.89,2.6
3,5122534,Jamestown,40,US,1594512769,78,42.1,-79.24,22.22,6.2
4,964432,Port Alfred,42,ZA,1594512700,69,-33.59,26.89,10.56,1.79
5,96994,Dahuk,1,IQ,1594512941,33,36.87,42.99,26.17,3.13
6,3985710,Cabo San Lucas,5,MX,1594512935,62,22.89,-109.91,34.44,7.2
7,3421765,Nanortalik,64,GL,1594512876,91,60.14,-45.24,6.27,4.15
8,3366880,Hermanus,2,ZA,1594512727,76,-34.42,19.23,8.89,0.89
9,5101405,Morris,48,US,1594512782,82,40.83,-74.53,26.11,3.66
10,3466980,Caravelas,22,BR,1594512886,84,-17.71,-39.25,21.61,1.76
11,3355672,Lüderitz,0,NA,1594512749,87,-26.65,15.16,11.0,2.1
12,5848280,Kapaa,75,US,1594512722,70,22.08,-159.32,29.0,7.7
13,2119932,Vanino,90,RU,1594513004,73,49.09,140.25,17.03,2.58
14,665790,Sulina,0,RO,1594513004,59,45.16,29.65,21.21,2.38
15,2456917,Goundam,22,ML,1594512929,44,16.41,-3.67,32.63,4.86
16,3372964,Lagoa,30,PT,1594512855,87,39.05,-27.98,20.49,7.13
17,4032243,Vaini,40,TO,1594512707,78,-21.2,-175.2,23.0,6.2
18,2075265,Busselton,0,AU,1594512735,79,-33.65,115.33,8.33,7.17
19,3833367,Ushuaia,20,AR,1594512536,80,-54.8,-68.3,2.0,8.2
20,6201424,Mataura,76,NZ,1594512715,92,-46.19,168.86,7.63,2.77
21,1151464,Phang Nga,75,TH,1594513007,94,8.45,98.53,25.0,4.6
22,1295765,Sittwe,100,MM,1594513007,85,20.15,92.9,28.14,4.6
23,3418910,Upernavik,5,GL,1594512703,83,72.79,-56.15,5.26,1.36
24,779622,Havøysund,100,NO,1594512765,62,71.0,24.66,12.0,3.1
25,2653755,Carmarthen,23,GB,1594513008,81,51.86,-4.31,12.22,2.1
26,3874787,Punta Arenas,20,CL,1594512481,74,-53.15,-70.92,1.0,4.6
27,3870243,Taltal,20,CL,1594512966,77,-25.4,-70.48,13.17,1.76
28,3982287,Teacapan,13,MX,1594513009,72,22.55,-105.75,30.65,6.33
29,3514592,Xalpatlahuac,76,MX,1594513009,84,17.47,-98.62,20.23,1.67
30,6167817,Torbay,40,CA,1594512789,77,47.67,-52.73,17.78,5.1
31,2206939,Bluff,99,NZ,1594512719,80,-46.6,168.33,8.46,8.08
32,1337610,Thinadhoo,27,MV,1594512791,75,0.53,72.93,28.87,3.9
33,5106841,Albany,87,US,1594512714,80,42.6,-73.97,26.67,3.14
34,2524928,Corleone,0,IT,1594513010,42,37.81,13.3,21.67,1.36
35,1266622,Khunti,75,IN,1594513011,94,23.08,85.28,24.0,1.5
36,305681,Kumluca,0,TR,1594513011,43,36.37,30.29,28.49,1.37
37,4034551,Faanui,26,PF,1594512711,74,-16.48,-151.75,25.74,7.93
38,2021031,Kyren,100,RU,1594512912,74,51.68,102.14,18.24,0.47
39,1215502,Banda Aceh,100,ID,1594512902,73,5.56,95.32,26.72,3.63
40,1645528,Denpasar,40,ID,1594512722,100,-8.65,115.22,26.0,6.2
41,3657661,Gualaquiza,82,EC,1594513012,85,-3.4,-78.55,18.46,0.68
42,2630299,Hofn,45,IS,1594513013,87,64.25,-15.21,11.49,2.41
43,2084442,Vanimo,100,PG,1594512874,71,-2.67,141.3,27.77,0.99
44,964420,Port Elizabeth,19,ZA,1594512810,66,-33.92,25.57,9.0,3.6
45,2121385,Severo-Kuril'sk,100,RU,1594512731,91,50.68,156.12,10.7,2.3
46,909488,Lukulu,1,ZM,1594513014,36,-14.37,23.24,13.25,3.02
47,2381334,Atar,0,MR,1594513014,30,20.52,-13.05,32.72,1.79
48,3424607,Tasiilaq,62,GL,1594512707,86,65.61,-37.64,5.0,6.2
49,2512186,Puerto del Rosario,2,ES,1594513015,83,28.5,-13.86,22.0,5.7
50,3369157,Cape Town,47,ZA,1594512647,87,-33.93,18.42,11.67,4.1
51,4021858,Guerrero Negro,0,MX,1594512734,36,27.98,-114.06,29.15,8.57
52,4035715,Avarua,97,CK,1594512746,73,-21.21,-159.78,25.0,3.6
53,2122090,Pevek,62,RU,1594512727,77,69.7,170.31,10.01,3.28
54,6170031,Tuktoyaktuk,20,CA,1594512755,66,69.45,-133.04,11.0,4.1
55,3377301,Mabaruma,59,GY,1594512925,90,8.2,-59.78,24.86,1.9
56,3374083,Bathsheba,40,BB,1594512850,78,13.22,-59.52,28.0,7.2
57,1507390,Dikson,100,RU,1594512721,100,73.51,80.55,4.75,6.47
58,5880054,Barrow,90,US,1594512704,80,71.29,-156.79,2.0,4.6
59,3689325,Bahía Solano,63,CO,1594513019,82,6.23,-77.4,25.12,0.48
60,3372707,Ribeira Grande,32,PT,1594512755,87,38.52,-28.7,20.96,5.64
61,1848976,Wajima,75,JP,1594513020,100,37.4,136.9,20.0,2.6
62,3901969,Urubichá,59,BO,1594513020,66,-15.38,-62.95,23.58,1.26
63,3091788,Milicz,87,PL,1594513021,82,51.53,17.27,11.67,2.43
64,3361934,Saldanha,23,ZA,1594512763,81,-33.01,17.94,6.0,1.0
65,3359736,Vredendal,0,ZA,1594513021,67,-31.67,18.5,8.77,2.45
66,1856068,Nago,40,JP,1594512783,74,26.59,127.98,31.0,3.6
67,2065594,Mount Isa,0,AU,1594512744,38,-20.73,139.5,15.0,9.8
68,2172880,Byron Bay,90,AU,1594513022,68,-28.65,153.62,20.0,1.5
69,935215,Saint-Philippe,46,RE,1594512771,77,-21.36,55.77,19.0,2.1
70,2126123,Chokurdakh,59,RU,1594512882,49,70.63,147.92,18.65,3.5
71,3471451,Arraial do Cabo,0,BR,1594512743,82,-22.97,-42.03,21.37,10.56
72,1835848,Seoul,90,KR,1594512756,53,37.57,126.98,25.0,1.75
73,1006984,East London,65,ZA,1594512710,52,-33.02,27.91,13.74,7.43
74,2110227,Butaritari,13,KI,1594512711,75,3.07,172.79,28.88,7.13
75,1634614,Nabire,100,ID,1594513024,91,-3.37,135.48,24.43,0.95
76,1337619,Ugoofaaru,98,MV,1594512798,71,5.67,73.0,28.47,2.42
77,1490085,Tarko-Sale,42,RU,1594512878,70,64.92,77.78,15.0,3.34
78,1264976,Leh,71,IN,1594513025,38,34.17,77.58,13.57,2.2
79,3471422,Arroio Grande,64,BR,1594513026,68,-32.24,-53.09,8.89,0.87
80,4362001,Mayo,40,US,1594512760,54,38.89,-76.51,29.0,3.6
81,1486321,Yar-Sale,100,RU,1594512786,60,66.83,70.83,13.74,0.16
82,2618795,Klaksvík,93,FO,1594512855,100,62.23,-6.59,10.0,3.6
83,1015776,Bredasdorp,0,ZA,1594512760,75,-34.53,20.04,8.0,2.6
84,6165406,Thompson,75,CA,1594512800,82,55.74,-97.86,16.0,2.6
85,1214488,Meulaboh,100,ID,1594512734,86,4.14,96.13,24.2,1.89
86,893485,Chiredzi,0,ZW,1594513030,32,-21.05,31.67,14.42,1.17
87,113508,Takāb,23,IR,1594512944,65,36.4,47.11,16.6,1.41
88,745697,Hayrabolu,0,TR,1594513031,94,41.21,27.11,20.0,3.1
89,4020109,Atuona,29,PF,1594512702,79,-9.8,-139.03,26.13,8.15
90,1859307,Kitakyushu,75,JP,1594513032,83,33.83,130.83,24.0,2.1
91,2012530,Zhigansk,65,RU,1594512765,93,66.77,123.37,16.57,10.06
92,2208248,Kaitangata,69,NZ,1594512746,63,-46.28,169.85,10.0,7.6
93,1106677,Bambous Virieux,40,MU,1594512721,77,-20.34,57.76,22.22,7.2
94,609906,Fort-Shevchenko,32,KZ,1594513033,58,44.51,50.26,28.32,6.27
95,934649,Cap Malheureux,35,MU,1594512929,67,-19.98,57.61,22.22,4.02
96,5563839,Fortuna,40,US,1594512852,63,40.6,-124.16,19.44,7.2
97,3453478,Pitanga,23,BR,1594513034,94,-24.76,-51.76,14.25,1.34
98,1806840,Huilong,100,CN,1594513035,97,31.81,121.66,27.22,0.89
99,1625908,Sungai Raya,12,ID,1594513035,83,0.7,108.9,25.81,1.55
100,739636,Şile,0,TR,1594513035,72,41.18,29.61,23.33,5.72
101,4683416,Corpus Christi,20,US,1594512991,70,27.8,-97.4,31.0,6.2
102,6185377,Yellowknife,75,CA,1594512739,49,62.46,-114.35,23.33,4.6
103,5847411,Kahului,20,US,1594512625,43,20.89,-156.47,32.0,11.3
104,1855540,Naze,75,JP,1594512767,89,28.37,129.48,30.0,4.1
105,2433055,Dourbali,49,TD,1594513036,70,11.81,15.86,26.63,1.73
106,1277949,Badvel,100,IN,1594513037,74,14.75,79.05,26.97,3.47
107,2171099,Codrington,13,AU,1594512770,86,-38.27,141.97,10.51,1.63
108,5850554,Makakilo City,75,US,1594512751,48,21.35,-158.09,31.0,3.6
109,6137462,Saint-Augustin,46,CA,1594512796,83,51.23,-58.65,17.56,9.34
110,5110365,Broome,90,US,1594513038,88,42.25,-75.83,23.33,8.7
111,5386035,Rancho Palos Verdes,5,US,1594512964,37,33.74,-118.39,28.89,7.7
112,104515,Makkah al Mukarramah,5,SA,1594513038,17,21.43,39.83,28.04,1.97
113,2063042,Port Hedland,0,AU,1594512806,25,-20.32,118.57,17.0,7.7
114,5861897,Fairbanks,20,US,1594512499,37,64.84,-147.72,21.11,3.1
115,2150163,Sawtell,75,AU,1594513039,77,-30.38,153.1,18.0,2.6
116,1649150,Bengkulu,54,ID,1594512760,86,-3.8,102.27,24.19,1.54
117,6096551,Pangnirtung,83,CA,1594512792,54,66.15,-65.71,11.36,0.71
118,3671540,Puerto Berrío,46,CO,1594513040,75,6.49,-74.4,26.07,0.8
119,3393922,Nísia Floresta,75,BR,1594513040,100,-6.09,-35.21,22.0,2.1
120,4031574,Provideniya,0,RU,1594512740,51,64.38,-173.3,13.61,1.45
121,3466165,Cidreira,100,BR,1594512713,87,-30.18,-50.21,13.36,2.55
122,932960,Werda,0,BW,1594513041,68,-25.27,23.28,4.1,2.67
123,3893726,Constitución,98,CL,1594512739,72,-35.33,-72.42,9.35,2.12
124,986717,Kruisfontein,36,ZA,1594512708,66,-34.0,24.73,7.3,2.9
125,2122605,Okhotsk,31,RU,1594513042,69,59.38,143.3,18.32,2.88
126,2980080,Saint-François,57,FR,1594513042,54,46.42,3.91,14.44,1.5
127,5855927,Hilo,75,US,1594512452,65,19.73,-155.09,28.0,3.6
128,4031637,Lavrentiya,13,RU,1594512712,46,65.58,-171.0,13.75,3.39
129,161616,Balkanabat,17,TM,1594513044,54,39.51,54.37,26.34,4.54
130,3389822,Salinópolis,53,BR,1594513044,81,-0.61,-47.36,26.58,5.38
131,476046,Velikooktyabr'skiy,70,RU,1594513044,83,57.43,33.82,11.54,2.06
132,333772,Jimma,56,ET,1594513045,89,7.67,36.83,14.09,0.61
133,1710519,Isabela,75,PH,1594513045,83,6.71,121.97,27.0,3.1
134,3674676,Mitú,97,CO,1594513046,96,1.2,-70.17,23.0,0.44
135,3470059,Bernardino de Campos,0,BR,1594513046,71,-23.01,-49.47,17.61,2.28
136,258175,Lixouri,0,GR,1594513046,80,38.2,20.43,22.61,2.68
137,5962442,Goderich,69,CA,1594512893,84,43.75,-81.72,23.89,4.47
138,2632287,Dalvik,20,IS,1594512960,81,65.97,-18.53,11.0,1.5
139,3664980,Boa Vista,75,BR,1594512793,88,2.82,-60.67,26.0,2.1
140,2729907,Longyearbyen,40,SJ,1594512873,70,78.22,15.64,7.0,10.3
141,3466988,Caratinga,8,BR,1594513048,90,-19.79,-42.14,16.33,1.21
142,2686469,Örnsköldsvik,89,SE,1594512740,87,63.29,18.72,10.0,3.6
143,286621,Salalah,90,OM,1594512797,100,17.02,54.09,27.0,2.6
144,777019,Vardø,17,NO,1594512751,89,70.37,31.11,8.28,5.59
145,5866583,Saint Paul Harbor,90,US,1594512610,63,57.79,-152.41,18.0,2.1
146,4470244,Havelock,40,US,1594512785,79,34.88,-76.9,29.0,4.6
147,5866063,Kenai,40,US,1594512860,67,60.55,-151.26,18.0,6.7
148,4033779,Punaauia,75,PF,1594513050,54,-17.63,-149.6,28.0,3.1
149,2108502,Honiara,40,SB,1594512896,79,-9.43,159.95,29.0,3.1
150,1513491,Yangi Marg`ilon,29,UZ,1594512818,43,40.43,71.72,23.0,3.1
151,2277060,Gbarnga,96,LR,1594513050,97,7.0,-9.47,20.54,1.24
152,218680,Boende,98,CD,1594513050,89,-0.22,20.87,22.66,0.85
153,2023350,Kabansk,20,RU,1594513051,88,52.05,106.65,18.0,0.94
154,2017658,Preobrazheniye,19,RU,1594513051,70,42.9,133.91,19.18,1.0
155,1715015,Dicabisagan,28,PH,1594513051,67,17.08,122.42,29.54,1.04
156,3466704,Castro,0,BR,1594512789,77,-24.79,-50.01,15.25,3.27
157,3985168,San Patricio,75,MX,1594512861,79,19.22,-104.7,31.0,2.6
158,4535961,Enid,1,US,1594513052,56,36.4,-97.88,36.0,5.1
159,2057087,Kupang,20,ID,1594512922,65,-10.17,123.58,28.0,7.2
160,3137469,Sørland,90,NO,1594513053,77,67.67,12.69,11.11,8.91
161,2132606,Samarai,33,PG,1594512933,88,-10.62,150.67,25.95,5.68
162,2017155,Saskylakh,68,RU,1594512772,76,71.92,114.08,19.89,6.58
163,1623197,Tual,84,ID,1594512860,83,-5.67,132.75,26.33,9.52
164,962367,Richards Bay,52,ZA,1594513054,56,-28.78,32.04,16.52,9.15
165,1714733,Dingle,100,PH,1594512961,78,11.0,122.67,27.6,0.29
166,2038067,Chifeng,100,CN,1594513055,64,42.27,118.96,24.16,1.81
167,184921,Mwingi,64,KE,1594513055,86,-0.93,38.06,17.1,2.73
168,3838859,Río Gallegos,40,AR,1594512857,86,-51.62,-69.22,-1.0,6.7
169,3652764,Puerto Ayora,75,EC,1594512713,93,-0.74,-90.35,19.44,0.89
170,5423573,Grand Junction,1,US,1594513056,3,39.06,-108.55,38.33,7.7
171,1258406,Rāpar,100,IN,1594513056,81,23.57,70.63,28.43,7.61
172,1273409,Dātāganj,19,IN,1594513056,63,28.03,79.4,30.97,0.3
173,359783,Assiut,0,EG,1594512823,39,27.18,31.18,26.0,5.1
174,5847486,Kailua,75,US,1594513057,58,21.4,-157.74,31.0,9.3
175,3404558,Cabedelo,75,BR,1594513057,100,-6.98,-34.83,22.0,1.5
176,98112,Balad,0,IQ,1594513057,14,34.02,44.15,31.98,5.49
177,3887344,Illapel,76,CL,1594513058,72,-31.63,-71.17,13.43,0.94
178,1128239,Rūdbār,0,AF,1594512793,25,30.15,62.6,26.67,5.71
179,1308415,Mudon,100,MM,1594513058,91,16.26,97.72,25.74,1.35
180,2156927,Moree,90,AU,1594512826,100,-29.47,149.85,12.0,2.1
181,3921355,Challapata,1,BO,1594513047,59,-18.9,-66.77,1.82,1.14
182,2137773,Vao,77,NC,1594512702,77,-22.67,167.48,20.99,8.66
183,7117100,Vila,30,PT,1594512819,54,42.03,-8.16,27.0,0.5
184,4169452,Punta Gorda,40,US,1594513060,66,26.93,-82.05,31.11,4.6
185,3445026,Vila Velha,0,BR,1594512747,88,-20.33,-40.29,20.56,0.5
186,5924351,Clyde River,1,CA,1594512859,71,70.47,-68.59,11.0,8.2
187,3863596,Cabildo,100,AR,1594513060,45,-38.48,-61.9,7.78,3.13
188,3521108,Progreso,40,MX,1594513061,70,21.28,-89.67,31.0,4.1
189,3412093,Vestmannaeyjar,100,IS,1594513061,89,63.44,-20.27,11.01,2.94
190,2214432,Nālūt,0,LY,1594513062,48,30.33,10.85,25.06,6.36
191,3446621,Teófilo Otoni,10,BR,1594513062,90,-17.86,-41.51,16.14,0.42
192,1078553,Ampanihy,0,MG,1594513024,64,-24.7,44.75,19.43,3.98
193,2548885,Fes,40,MA,1594513063,40,34.04,-5.0,31.0,5.7
194,3430863,Mar del Plata,71,AR,1594512868,57,-38.0,-57.56,9.44,5.7
195,1791779,Wanning,73,CN,1594513064,82,18.8,110.4,28.89,5.66
196,3831208,Qaanaaq,12,GL,1594512709,58,77.48,-69.36,7.72,1.69
197,554830,Izhma,96,RU,1594513065,64,65.01,53.91,16.02,2.9
198,4033557,Tautira,75,PF,1594513065,54,-17.73,-149.15,28.0,3.1
199,627905,Horki,100,BY,1594513065,94,54.29,30.98,13.59,5.1
200,2024812,Dul'durga,99,RU,1594513065,89,50.68,113.59,18.14,3.41
201,2025630,Chara,47,RU,1594513066,38,56.91,118.26,26.33,0.81
202,3924679,Vilhena,5,BR,1594513067,59,-12.74,-60.15,21.48,0.6
203,2071860,Esperance,0,AU,1594512509,93,-33.87,121.9,4.0,5.1
204,5118693,Glens Falls,20,US,1594513067,69,43.31,-73.64,27.0,5.7
205,1252795,Yanam,100,IN,1594512931,83,16.73,82.22,27.36,2.79
206,1277699,Bakāni,100,IN,1594513068,78,24.28,76.23,27.63,5.79
207,2121373,Seymchan,56,RU,1594513068,44,62.88,152.43,22.25,4.07
208,2444219,Gouré,84,NE,1594513068,44,13.98,10.27,31.11,5.78
209,2450173,Taoudenni,98,ML,1594512780,40,22.68,-3.98,32.96,4.63
210,2126199,Cherskiy,99,RU,1594512712,69,68.75,161.3,10.33,5.95
211,3381538,Grand-Santi,83,GF,1594513069,96,4.25,-54.38,23.36,1.39
212,4160610,Jupiter,1,US,1594513070,83,26.93,-80.09,27.22,1.5
213,2332079,Lere,100,NG,1594513070,93,10.39,8.57,20.44,1.72
214,556268,Ostrovnoy,57,RU,1594512851,82,68.05,39.51,10.92,0.98
215,933995,Souillac,40,MU,1594512709,77,-20.52,57.52,21.0,7.2
216,97783,Bayjī,0,IQ,1594513071,17,34.93,43.49,29.77,3.56
217,86049,Jalu,0,LY,1594513072,64,29.03,21.55,23.36,4.45
218,3385077,Conde,75,BR,1594513072,100,-7.26,-34.91,22.0,1.5
219,3991148,Quila,5,MX,1594513073,44,24.42,-107.22,37.0,5.1
220,1282256,Hithadhoo,18,MV,1594512703,79,-0.6,73.08,28.53,6.18
221,2182010,Tairua,9,NZ,1594513073,78,-37.02,175.85,13.33,2.68
222,2028462,Ulaanbaatar,33,MN,1594512842,82,47.91,106.88,14.0,2.0
223,2127202,Anadyr,100,RU,1594512879,55,64.75,177.48,16.0,2.0
224,1497917,Nefteyugansk,75,RU,1594513074,100,61.1,72.6,16.0,7.0
225,1267390,Kavaratti,100,IN,1594512736,84,10.57,72.64,25.62,6.01
226,3141667,Roald,94,NO,1594513074,81,62.58,6.13,10.0,7.2
227,3359638,Walvis Bay,0,NA,1594512700,87,-22.96,14.51,11.11,3.1
228,473998,Veshenskaya,0,RU,1594513075,78,49.63,41.73,18.34,4.12
229,6067472,Marystown,92,CA,1594513076,94,47.17,-55.15,13.38,3.04
230,1734971,Pekan,20,MY,1594513076,94,3.48,103.4,24.0,2.78
231,2189343,Kaeo,16,NZ,1594512799,16,-35.1,173.78,16.67,2.68
232,703716,Kulykiv,100,UA,1594513077,98,50.31,24.82,12.78,2.24
233,3899695,Ancud,75,CL,1594512790,93,-41.87,-73.82,5.0,1.5
234,4998842,Lapeer,1,US,1594513077,54,43.05,-83.32,27.0,2.1
235,1810240,Gejiu,100,CN,1594513077,100,23.31,103.16,15.43,1.54
236,1337605,Mahibadhoo,97,MV,1594512756,78,3.78,72.97,28.22,5.28
237,2155415,New Norfolk,67,AU,1594512749,93,-42.78,147.06,8.33,0.35
238,2997246,Lucé,93,FR,1594513078,67,48.44,1.46,12.78,1.79
239,1045114,Inhambane,46,MZ,1594512730,68,-23.86,35.38,18.48,6.85
240,2276492,Harper,100,LR,1594513079,77,4.38,-7.72,23.98,3.17
241,934482,Grand Baie,31,MU,1594513079,67,-20.02,57.58,22.22,4.02
242,3347353,Menongue,0,AO,1594512733,41,-14.66,17.69,11.4,2.38
243,4989133,Charter Township of Clinton,75,US,1594513080,51,42.59,-82.92,28.0,4.1
244,546105,Nikolskoye,40,RU,1594512728,87,59.7,30.79,13.33,2.0
245,2537881,Safi,3,MA,1594513080,80,32.3,-9.24,21.74,4.98
246,1735106,George Town,20,MY,1594512744,88,5.41,100.34,25.0,1.64
247,2015306,Tiksi,100,RU,1594512773,65,71.69,128.87,11.76,1.34
248,2013279,Vostok,46,RU,1594512931,63,46.49,135.88,20.65,1.5
249,5808079,Redmond,100,US,1594513006,69,47.67,-122.12,20.0,0.45
250,2180815,Tuatapere,72,NZ,1594512724,82,-46.13,167.68,8.6,4.5
251,1563281,Tuy Hoa,100,VN,1594513082,79,13.08,109.3,27.03,2.39
252,934479,Grand Gaube,36,MU,1594512892,67,-20.01,57.66,22.22,4.02
253,359792,Aswān,0,EG,1594513083,23,24.09,32.91,30.21,5.57
254,2206854,Gisborne,23,NZ,1594513085,58,-38.65,178.0,13.88,4.88
255,778707,Mehamn,100,NO,1594512745,87,71.04,27.85,7.84,1.6
256,1847947,Shingū,75,JP,1594512930,88,33.73,135.98,24.0,4.6
257,2242001,Caxito,90,AO,1594513085,78,-8.58,13.66,22.0,4.1
258,5282297,Bethel,90,US,1594512695,94,41.37,-73.41,24.44,3.1
259,3374333,Praia,75,CV,1594512809,73,14.92,-23.51,25.0,6.7
260,1633419,Padang,97,ID,1594512763,78,-0.95,100.35,25.35,1.49
261,2978639,Arrondissement de Saint-Malo,47,FR,1594513088,71,48.5,-1.83,14.0,3.1
262,5495360,Tucumcari,1,US,1594513088,20,35.17,-103.72,39.0,5.7
263,2157698,Mildura,90,AU,1594513088,100,-34.2,142.15,4.44,1.0
264,1275926,Bhind,40,IN,1594513088,74,26.56,78.79,30.0,2.6
265,2194098,Ahipara,33,NZ,1594512738,67,-35.17,173.17,14.68,3.54
266,1708743,Kinablangan,91,PH,1594513089,64,7.69,126.55,28.71,0.47
267,2027740,Amurzet,5,RU,1594513089,79,47.7,131.1,23.03,1.3
268,1526970,Abay,1,KZ,1594513090,93,49.63,72.85,8.0,2.0
269,3037352,Apt,0,FR,1594512966,40,43.88,5.4,22.0,5.7
270,2070998,Geraldton,0,AU,1594512720,40,-28.77,114.6,11.0,10.3
271,2399001,Mayumba,63,GA,1594513091,90,-3.43,10.66,22.33,1.44
272,1797595,Qinhuangdao,100,CN,1594513092,64,39.93,119.59,24.8,2.79
273,2147714,Sydney,20,AU,1594512414,76,-33.87,151.21,15.0,3.1
274,3932145,Pisco,75,PE,1594512739,77,-13.7,-76.22,17.0,3.1
275,5364022,La Palma,20,US,1594513093,21,33.85,-118.05,36.11,4.6
276,2025099,Dauriya,71,RU,1594513093,64,49.93,116.87,22.03,7.36
277,2094027,Kieta,86,PG,1594513093,63,-6.22,155.63,29.92,2.51
278,2063036,Port Lincoln,7,AU,1594512784,75,-34.73,135.87,13.1,4.4
279,1497376,Nizhnyaya Tavda,0,RU,1594513094,74,57.67,66.17,15.87,3.23
280,6355222,Yulara,0,AU,1594512894,57,-25.24,130.99,10.0,2.6
281,1142263,Farah,0,AF,1594513095,31,32.5,62.5,20.88,3.53
282,1718234,Caruray,40,PH,1594513095,78,10.31,119.01,27.0,2.1
283,3374120,Vila do Maio,75,CV,1594513095,73,15.13,-23.22,25.0,6.7
284,6319315,Fonte Boa,73,BR,1594513096,95,-2.5,-66.27,23.5,0.8
285,2191562,Dunedin,98,NZ,1594512815,76,-45.87,170.5,11.67,1.34
286,863061,Usinsk,1,RU,1594513097,77,65.99,57.53,13.43,1.17
287,2128975,Nemuro,75,JP,1594512834,88,43.32,145.57,17.0,5.1
288,3347019,Mossamedes,0,AO,1594512900,56,-15.2,12.15,17.96,3.56
289,3883457,Lebu,94,CL,1594512737,80,-37.62,-73.65,9.84,3.64
290,885800,Mount Darwin,6,ZW,1594513098,69,-16.77,31.58,16.45,1.15
291,3421719,Narsaq,29,GL,1594512773,81,60.92,-46.05,10.0,3.1
292,3061729,Ždánice,99,CZ,1594513098,93,49.07,17.03,11.0,2.1
293,2447513,Arlit,16,NE,1594512948,25,18.74,7.39,33.06,1.59
294,178443,Wajir,75,KE,1594513099,72,1.75,40.06,23.45,7.52
295,2165087,Gold Coast,75,AU,1594512995,64,-28.0,153.43,22.0,3.6
296,2015913,Suntar,22,RU,1594512701,74,62.14,117.63,21.55,3.23
297,1244926,Hambantota,100,LK,1594512818,81,6.12,81.12,26.9,7.04
298,6542092,Anzio,0,IT,1594513100,99,41.49,12.62,23.89,0.89
299,2017215,Sangar,46,RU,1594513100,66,63.92,127.47,22.46,7.56
300,5151186,Coshocton,9,US,1594513101,66,40.27,-81.86,26.11,2.32
301,1254046,Tura,98,IN,1594512789,99,25.52,90.22,23.63,2.71
302,2074865,Carnarvon,0,AU,1594512662,32,-24.87,113.63,12.0,4.6
303,6144312,Sept-Îles,90,CA,1594513101,88,50.2,-66.38,19.0,2.1
304,4202810,Jesup,1,US,1594513077,36,31.61,-81.89,35.0,1.5
305,2123628,Magadan,3,RU,1594513103,71,59.57,150.8,16.62,0.52
306,3489440,Morant Bay,20,JM,1594513103,66,17.88,-76.41,30.0,6.2
307,4328010,Houma,40,US,1594513103,70,29.6,-90.72,35.0,3.1
308,5859699,College,75,US,1594512563,32,64.86,-147.8,21.0,0.44
309,1529195,Shihezi,67,CN,1594513104,51,44.3,86.03,21.6,4.02
310,2033196,Zhangjiakou,100,CN,1594513105,82,40.81,114.88,20.22,1.19
311,1797117,Rongcheng,100,CN,1594513106,99,30.63,117.85,27.78,1.71
312,3421193,Paamiut,0,GL,1594512887,87,61.99,-49.67,6.53,0.7
313,609924,Emba,76,KZ,1594513107,32,48.83,58.14,29.52,3.31
314,2022572,Khatanga,84,RU,1594512808,78,71.97,102.5,11.1,7.66
315,4616470,Crossville,1,US,1594513107,51,35.95,-85.03,27.0,3.1
316,934322,Mahébourg,40,MU,1594512761,73,-20.41,57.7,21.0,6.7
317,1328421,Pathein,76,MM,1594513108,84,16.78,94.73,27.21,1.83
318,2109528,Buala,80,SB,1594512773,70,-8.14,159.59,29.53,4.09
319,697613,Manhush,0,UA,1594513108,100,47.06,37.31,24.44,6.71
320,5404554,Union City,1,US,1594512896,42,37.6,-122.02,33.89,6.2
321,3105522,Bereda,48,ES,1594513109,96,43.27,-7.54,16.11,4.47
322,3896105,Cauquenes,95,CL,1594512949,81,-35.97,-72.32,7.17,0.68
323,1529484,Kumul,74,CN,1594512922,24,42.8,93.45,28.1,2.15
324,3407194,Areia Branca,49,BR,1594513110,75,-4.96,-37.14,25.12,8.27
325,1529660,Aksu,16,CN,1594513110,47,41.12,80.26,21.53,1.59
326,3628473,San Cristobal,75,VE,1594512672,54,7.77,-72.22,28.0,8.7
327,111453,Zanjān,70,IR,1594513112,74,36.67,48.48,14.83,3.3
328,50814,Wajid,49,SO,1594513112,70,3.81,43.25,23.66,9.0
329,2079582,Alyangula,40,AU,1594512867,78,-13.85,136.42,25.0,3.6
330,920233,Chibombo,0,ZM,1594513112,64,-14.66,28.07,15.71,2.12
331,8079926,Labuhan,82,ID,1594512934,81,-6.88,112.21,25.48,4.28
332,3860443,Comodoro Rivadavia,2,AR,1594513113,52,-45.87,-67.5,5.0,3.6
333,5969025,Haines Junction,100,CA,1594512788,46,60.75,-137.51,15.58,3.55
334,2126710,Beringovskiy,97,RU,1594512706,84,63.05,179.32,9.62,1.31
335,3948613,Acarí,21,PE,1594513114,62,-15.43,-74.62,16.07,1.72
336,2417795,Mandiana,100,GN,1594513114,94,10.63,-8.68,22.13,3.08
337,2093846,Kiunga,99,PG,1594513115,96,-6.12,141.29,24.09,1.4
338,1819729,Hong Kong,70,HK,1594512732,70,22.29,114.16,31.11,3.58
339,1651461,Amuntai,100,ID,1594513115,99,-2.42,115.25,23.08,0.77
340,3680880,Herveo,40,CO,1594513115,94,5.08,-75.17,22.0,1.0
341,293842,Kiryat Gat,4,IL,1594512768,73,31.61,34.76,24.44,0.82
342,1651531,Ambon City,98,ID,1594513116,14,-3.7,128.18,26.67,4.97
343,611584,Tkibuli,75,GE,1594513117,94,42.35,43.0,22.0,1.0
344,780687,Berlevåg,93,NO,1594512794,90,70.86,29.09,7.91,1.21
345,2178753,Kirakira,19,SB,1594512812,75,-10.45,161.92,28.42,6.44
346,2294915,Takoradze,63,GH,1594513117,88,4.88,-1.76,23.54,3.79
347,3180850,Canelli,11,IT,1594513118,96,44.72,8.29,19.44,1.83
348,1259184,Puri,75,IN,1594513118,100,19.8,85.85,27.0,5.67
349,3893629,Coquimbo,13,CL,1594512833,93,-29.95,-71.34,11.0,1.0
350,933471,Bonwapitse,0,BW,1594513119,62,-23.08,26.7,4.83,3.11
351,3374210,São Filipe,30,CV,1594512720,82,14.9,-24.5,23.4,2.33
352,3924908,Pimenta Bueno,1,BR,1594513119,56,-11.67,-61.19,24.37,1.11
353,3461888,Guarapari,0,BR,1594512939,88,-20.67,-40.5,20.56,0.5
354,6089245,Norman Wells,90,CA,1594512805,67,65.28,-126.83,15.0,4.6
355,1814093,Dali,100,CN,1594513120,81,25.7,100.18,17.98,1.33
356,3013633,Arrondissement du Havre,0,FR,1594513120,87,49.58,0.33,11.0,3.1
357,3421319,Nuuk,0,GL,1594513077,66,64.18,-51.72,10.56,3.58
358,2269142,Colares,15,PT,1594513121,72,38.8,-9.45,20.0,7.6
359,2269449,Caxias,1,PT,1594513121,64,38.7,-9.28,22.22,4.1
360,1855342,Nishihara,75,JP,1594512791,83,26.18,127.76,31.0,3.1
361,3868626,Valparaíso,84,CL,1594512835,93,-33.04,-71.63,11.0,2.1
362,2264557,Ponta do Sol,0,PT,1594512707,78,32.67,-17.1,21.11,1.96
363,2094342,Kavieng,100,PG,1594512748,71,-2.57,150.8,29.13,4.16
364,935214,Saint-Pierre,28,RE,1594512908,77,-21.34,55.48,18.0,1.5
365,1529376,Korla,2,CN,1594512717,69,41.76,86.15,26.11,1.79
366,72181,Marzuq,90,YE,1594512766,24,14.4,46.47,29.93,0.74
367,2522325,Agüimes,20,ES,1594513123,78,27.91,-15.45,22.0,10.8
368,3981391,Tomatlán,73,MX,1594512909,63,19.93,-105.25,31.97,3.21
369,5870133,Nome,40,US,1594512752,59,64.5,-165.41,20.0,3.6
370,2620767,Harboøre,12,DK,1594513124,80,56.62,8.18,11.67,9.58
371,2319078,Wawa,96,NG,1594513125,90,9.9,4.42,23.94,2.57
372,2210247,Tripoli,0,LY,1594512930,75,32.88,13.19,23.84,3.15
373,1927639,Yueyang,99,CN,1594513125,84,29.33,113.09,26.72,5.17
374,2347758,Bara,98,NG,1594512928,91,10.37,10.73,22.89,4.96
375,1272259,Duliāgaon,90,IN,1594513126,100,27.37,95.32,25.0,4.1
376,3405061,Boqueirão,23,BR,1594513126,94,-7.5,-36.13,19.65,2.68
377,2032614,Baruun-Urt,1,MN,1594513126,42,46.68,113.28,22.57,1.27
378,3150002,Kjøpsvik,100,NO,1594513127,93,68.1,16.37,10.0,8.7
379,3407882,Altamira,63,BR,1594513127,94,-3.2,-52.21,23.0,1.21
380,2155562,Nelson Bay,57,AU,1594512952,82,-32.72,152.15,15.56,4.6
381,486645,Sukhobezvodnoye,47,RU,1594513128,89,57.05,44.89,14.35,2.8
382,4407010,Saint Joseph,1,US,1594513051,66,39.77,-94.85,29.44,4.1
383,3139597,Sistranda,75,NO,1594512756,93,63.73,8.83,9.0,5.7
384,5557293,Sitka,75,US,1594512803,82,57.05,-135.33,14.0,2.1
385,303830,Nevşehir,0,TR,1594513129,68,38.92,34.67,19.0,1.0
386,2629833,Husavik,90,IS,1594512573,87,66.04,-17.34,11.0,0.5
387,5367788,Lompoc,0,US,1594512531,56,34.64,-120.46,25.56,6.7
388,504280,Pudem,67,RU,1594513130,87,58.3,52.17,13.74,1.67
389,2021066,Kyakhta,100,RU,1594513130,95,50.35,106.45,16.29,1.12
390,1504382,Kargasok,82,RU,1594513131,74,59.06,80.86,17.58,4.01
391,2654410,Buckingham,8,GB,1594513131,82,52.0,-0.99,10.0,2.24
392,1492566,Severo-Yeniseyskiy,8,RU,1594513131,67,60.37,93.04,14.82,4.67
393,933815,Dekar,0,BW,1594513131,65,-21.53,21.93,4.13,3.78
394,2145554,Ulladulla,81,AU,1594512880,76,-35.35,150.47,12.22,3.6
395,1494500,Poltavka,99,RU,1594513132,87,54.37,71.76,19.59,5.7
396,5546220,Saint George,1,US,1594512682,12,37.1,-113.58,42.0,7.2
397,655808,Joensuu,20,FI,1594513132,93,62.6,29.76,12.22,4.1
398,6145890,Shelburne,75,CA,1594512904,78,44.08,-80.2,23.0,5.1
399,1242110,Kalmunai,100,LK,1594513133,82,7.42,81.82,26.66,1.26
400,3407407,Aquiraz,40,BR,1594512954,74,-3.9,-38.39,27.0,4.1
401,3395981,Maceió,75,BR,1594513134,94,-9.67,-35.74,22.0,3.1
402,5515743,Guymon,1,US,1594513134,31,36.68,-101.48,38.0,9.8
403,4004293,Ixtapa,90,MX,1594513135,70,20.7,-105.2,31.0,4.1
404,10722858,Forsytheganj,98,BY,1594513135,96,52.63,29.73,15.32,4.62
405,3451138,Rio Grande,4,BR,1594512665,90,-32.03,-52.1,10.56,2.73
406,3443061,Chui,49,UY,1594512784,70,-33.7,-53.46,6.97,2.63
407,2030065,Mandalgovi,84,MN,1594513136,46,45.76,106.27,19.6,5.78
408,477940,Ust-Tsilma,93,RU,1594513136,65,65.44,52.15,15.47,1.8
409,3352844,Swakopmund,0,NA,1594513136,87,-22.68,14.53,11.11,2.6
410,3372472,Vila Franca do Campo,20,PT,1594512833,72,37.72,-25.43,20.0,2.6
411,2644605,Lerwick,94,GB,1594513137,100,60.15,-1.15,11.0,11.3
412,1651810,Airai,65,TL,1594512744,88,-8.93,125.41,18.31,1.98
413,2063056,Port Augusta,39,AU,1594512955,93,-32.5,137.77,11.0,5.1
414,1279945,Jiuquan,31,CN,1594512635,29,39.74,98.52,23.55,0.73
415,3868633,Vallenar,29,CL,1594513138,46,-28.57,-70.76,17.85,0.62
416,5882953,Aklavik,40,CA,1594512816,44,68.22,-135.01,16.0,1.5
417,338345,Edd,98,ER,1594513139,46,13.93,41.69,32.6,2.78
418,2377457,Nouadhibou,0,MR,1594512712,83,20.93,-17.03,21.0,6.7
419,1698289,Pundaguitan,91,PH,1594513139,74,6.37,126.17,27.57,1.47
420,3792382,Cartagena del Chairá,8,CO,1594513139,89,1.33,-74.84,23.09,0.24
421,5915327,Cap-aux-Meules,75,CA,1594513140,88,47.38,-61.86,20.0,8.7
422,110690,Faya,52,SA,1594512827,31,18.39,42.45,25.0,1.39
423,3141850,Ringebu,96,NO,1594513140,82,61.52,10.17,5.56,1.25
424,1264527,Chennai,40,IN,1594512855,88,13.09,80.28,27.0,5.37
425,2610343,Vestmanna,99,FO,1594513141,100,62.16,-7.17,10.0,3.6
426,1529569,Changji,52,CN,1594513142,49,44.02,87.32,21.0,5.0
427,6255012,Flinders,60,AU,1594513142,86,-34.58,150.86,15.0,3.13
428,3671519,Puerto Carreño,100,CO,1594513142,94,6.19,-67.49,22.86,1.68
429,6089179,Normandin,75,CA,1594512745,94,48.83,-72.53,23.0,1.5
430,1816971,Baoding,96,CN,1594513143,82,38.85,115.49,24.56,2.38
431,118063,Sabzawār,0,IR,1594513143,36,36.21,57.68,22.25,4.12
432,4231997,Avera,40,US,1594512744,49,33.19,-82.53,32.0,2.6
433,108410,Riyadh,57,SA,1594512957,21,24.69,46.72,32.0,1.5
434,2021017,Kysyl-Syr,77,RU,1594512780,66,63.9,122.76,25.49,3.97
435,371745,Kutum,40,SD,1594512891,59,14.2,24.67,23.44,4.28
436,582447,Almaznyy,0,RU,1594513145,38,48.04,40.05,23.0,5.0
437,2136825,Isangel,8,VU,1594512837,74,-19.55,169.27,24.18,6.92
438,1516527,Zholymbet,52,KZ,1594513146,84,51.74,71.71,19.41,3.2
439,2511174,Santa Cruz de Tenerife,40,ES,1594512793,93,28.47,-16.25,21.11,6.2
440,3456642,Mozarlândia,15,BR,1594513147,49,-14.74,-50.57,24.72,1.96
441,2396518,Port-Gentil,90,GA,1594512776,88,-0.72,8.78,25.0,5.39
442,5392900,Santa Ana,20,US,1594512901,21,33.75,-117.87,37.22,4.6
443,3382160,Cayenne,40,GF,1594512920,94,4.93,-52.33,26.0,4.52
444,1067565,Beloha,0,MG,1594512810,67,-25.17,45.05,18.74,2.64
445,141679,Bandar-e Anzali,67,IR,1594513149,77,37.47,49.46,22.27,1.71
446,6127950,Rossland,99,CA,1594513149,41,49.08,-117.8,22.78,1.34
447,3386213,Touros,75,BR,1594513150,100,-5.2,-35.46,22.0,2.1
448,3402648,Carutapera,51,BR,1594513150,88,-1.2,-46.02,24.84,2.94
449,2738381,Lata,99,PT,1594513150,64,40.16,-8.33,22.22,3.13
450,5044290,Saint Anthony,75,US,1594512817,69,45.02,-93.22,28.0,4.1
451,4887163,Champaign,90,US,1594513151,83,40.13,-88.2,27.22,5.1
452,3573374,The Valley,40,AI,1594513151,74,18.22,-63.06,29.0,6.2
453,3461425,Ilhabela,1,BR,1594513152,66,-23.78,-45.36,23.23,2.49
454,1712961,Gigmoto,100,PH,1594513152,71,13.78,124.39,29.06,0.6
455,2101169,Aitape,99,PG,1594513152,68,-3.14,142.35,28.59,1.0
456,1735799,Sri Aman,20,MY,1594513152,94,1.24,111.46,24.0,0.64
457,2367164,Dapaong,84,TG,1594513153,87,10.86,0.2,23.83,4.71
458,1079088,Ambositra,25,MG,1594513153,92,-20.52,47.25,8.66,1.42
459,2090021,Namatanai,69,PG,1594512737,70,-3.67,152.43,28.9,2.6
460,4734350,Stephenville,1,US,1594513154,32,32.22,-98.2,37.0,2.6
461,4034496,Fare,15,PF,1594513154,70,-16.7,-151.02,26.05,7.8
462,3894426,Coyhaique,20,CL,1594513154,95,-45.58,-72.07,0.0,3.6
463,3408368,Acaraú,5,BR,1594513155,77,-2.89,-40.12,24.87,4.89
464,5919815,Channel-Port aux Basques,93,CA,1594513155,94,47.57,-59.14,14.88,5.83
465,3928924,Satipo,43,PE,1594513155,62,-11.25,-74.64,23.48,0.82
466,55671,Kismayo,98,SO,1594513156,80,-0.36,42.55,25.86,7.54
467,3462916,Frutal,18,BR,1594513157,55,-20.02,-48.94,21.83,3.39
468,3520994,Puerto Escondido,75,MX,1594513157,73,15.85,-97.07,28.55,1.84
469,1723481,Buenavista,93,PH,1594513157,75,8.98,125.41,27.4,1.4
470,3665380,Alvarães,47,BR,1594513157,89,-3.22,-64.8,24.37,0.62
471,3449747,Santa Vitória do Palmar,51,BR,1594513158,69,-33.52,-53.37,7.2,2.16
472,5720495,Coos Bay,1,US,1594512700,56,43.37,-124.22,21.0,3.6
473,1851462,Sukumo,100,JP,1594513159,94,32.93,132.73,21.61,1.94
474,932416,Mokhotlong,39,LS,1594513160,92,-29.29,29.07,-5.01,0.43
475,64814,Bandarbeyla,59,SO,1594512760,69,9.49,50.81,26.82,14.94
476,1106643,Quatre Cocos,40,MU,1594512884,73,-20.21,57.76,22.22,6.7
477,1636022,Martapura,20,ID,1594513013,94,-3.42,114.85,25.0,2.6
478,2521570,Arrecife,20,ES,1594513161,83,28.96,-13.55,22.0,9.3
479,3429577,Resistencia,94,AR,1594513161,82,-27.46,-58.98,18.0,3.1
480,779554,Honningsvåg,100,NO,1594512812,77,70.98,25.97,9.74,4.43
481,2134814,Sola,75,VU,1594512767,83,-13.88,167.55,27.0,4.1
482,552465,Kargopol',46,RU,1594513162,91,61.51,38.95,10.74,4.99
483,2112802,Hasaki,75,JP,1594512779,78,35.73,140.83,30.0,3.1
484,1490256,Talnakh,90,RU,1594512814,93,69.49,88.4,9.0,5.0
485,3123688,Ejea de los Caballeros,0,ES,1594513163,60,42.13,-1.14,21.0,3.1
486,1528796,At-Bashi,23,KG,1594513163,71,41.17,75.81,9.59,0.22
487,2018735,Nyurba,53,RU,1594513164,81,63.28,118.33,21.17,3.44
488,2013375,Vitim,62,RU,1594513164,66,59.45,112.56,22.48,2.06
489,2176639,Batemans Bay,71,AU,1594513164,90,-35.72,150.18,12.22,1.32
490,2460954,Araouane,36,ML,1594513165,28,18.9,-3.53,34.28,2.05
491,5344157,Dublin,1,US,1594513165,7,37.7,-121.94,37.22,6.2
492,1643078,Indramayu,70,ID,1594513023,78,-6.33,108.32,25.64,3.41
493,2457161,Gao,19,ML,1594513165,37,16.64,1.64,32.99,3.23
494,103630,Najrān,51,SA,1594512945,21,17.49,44.13,29.0,2.1
495,3433899,Formosa,99,AR,1594513166,88,-26.18,-58.18,21.0,2.1
496,5919850,Chapais,90,CA,1594512761,94,49.78,-74.85,20.0,1.5
497,6162949,Terrace,75,CA,1594513166,63,54.52,-128.6,17.0,8.2
498,3694112,Paita,0,PE,1594512817,80,-5.09,-81.11,18.08,6.63
499,3393692,Itarema,2,BR,1594512806,80,-2.92,-39.92,24.56,4.4
500,2446796,Bilma,48,NE,1594513168,32,18.69,12.92,31.9,5.5
501,1082243,Ambilobe,71,MG,1594513168,83,-13.2,49.05,20.59,1.45
502,3391889,Pitimbu,75,BR,1594512856,100,-7.47,-34.81,22.0,1.5
503,3943957,Chilca,75,PE,1594513168,77,-12.52,-76.74,16.0,4.1
504,2317397,Bandundu Province,24,CD,1594513169,72,-3.32,17.37,24.54,1.28
505,671427,Păltiniş,23,RO,1594513169,77,48.22,26.65,18.33,2.24
506,3665210,Rodrigues Alves,70,BR,1594513169,80,-7.74,-72.65,23.77,0.8
507,2108857,Gizo Government Station,62,SB,1594512956,70,-8.1,156.84,28.85,3.57
508,1703518,Mainit,83,PH,1594513170,70,9.54,125.52,28.06,0.62
509,5364271,Laguna,1,US,1594512775,10,38.42,-121.42,40.56,4.1
510,2737599,Mogadouro,77,PT,1594513171,85,41.34,-6.71,17.78,4.81
511,1644932,Ende,91,ID,1594513171,77,-8.84,121.66,25.71,2.54
512,3405870,Belém,40,BR,1594513113,94,-1.46,-48.5,24.0,1.0
513,5983720,Iqaluit,90,CA,1594512711,93,63.75,-68.51,5.0,2.6
514,4162539,Lockhart,20,US,1594513172,88,28.62,-81.44,25.0,3.1
515,2038421,Bayan,0,CN,1594513173,67,46.08,127.4,23.6,2.84
516,3115824,Muros,0,ES,1594513173,72,42.78,-9.06,20.56,3.58
517,3456248,Nortelândia,39,BR,1594513173,45,-14.45,-56.8,24.8,1.67
518,3401148,Cururupu,44,BR,1594513174,93,-1.83,-44.87,23.68,1.38
519,3576994,Cockburn Town,42,TC,1594513174,79,21.46,-71.14,28.19,8.37
520,6539881,Sacile,44,IT,1594513174,88,45.95,12.5,16.67,1.34
521,1133310,Mīrābād,0,AF,1594513174,23,30.44,61.84,27.84,10.47
522,6050066,La Ronge,40,CA,1594513175,41,55.1,-105.28,26.0,2.1
523,154097,Mgandu,0,TZ,1594513175,81,-5.95,34.13,14.66,3.61
524,3472391,Amambai,0,BR,1594513175,64,-23.1,-55.23,20.24,3.05
525,3354071,Oranjemund,0,NA,1594513176,60,-28.55,16.43,11.85,2.37
526,352733,Marsá Maţrūḩ,0,EG,1594513176,83,31.35,27.25,23.0,4.56
527,3920736,Chimoré,81,BO,1594513176,77,-16.98,-65.13,23.27,0.9
528,1527497,Kyzyl-Suu,1,KG,1594513177,59,42.34,78.0,12.43,1.12
529,2407262,Lungi,100,SL,1594513177,97,9.22,-12.68,21.89,1.01
530,2156643,Mount Gambier,40,AU,1594512867,100,-37.83,140.77,9.0,2.1
531,2643044,Margate,18,GB,1594513178,86,51.38,1.39,15.56,1.84
532,1640972,Katobu,27,ID,1594512942,86,-4.94,122.53,25.81,1.05
533,2018553,Ol'ga,78,RU,1594513178,68,43.74,135.29,18.87,3.23
534,6457405,Province of Vibo Valentia,0,IT,1594513178,83,38.7,16.13,25.0,2.6
535,5527953,Pampa,40,US,1594513179,19,35.54,-100.96,38.0,3.6
536,3904906,Santa Cruz de la Sierra,75,BO,1594513179,83,-17.8,-63.17,23.0,5.7
537,358619,Port Said,0,EG,1594512965,73,31.26,32.28,25.0,3.1
538,3461724,Gurupi,40,BR,1594513180,48,-11.73,-49.07,24.85,2.11
539,2022773,Khandyga,53,RU,1594513180,52,62.67,135.6,26.14,0.9
540,2036933,Helong,38,CN,1594513180,71,42.54,129.0,22.28,1.22
541,2177069,Ballina,90,AU,1594512799,68,-28.87,153.57,20.0,1.5
542,3467796,Candeias,74,BR,1594513181,68,-20.77,-45.28,16.63,1.17
543,337405,Gambēla,82,ET,1594512782,89,8.25,34.58,21.75,1.45
544,5110092,Brewster,90,US,1594513182,94,41.4,-73.62,22.78,3.1
545,1268814,Joshīmath,80,IN,1594513182,59,30.57,79.57,17.97,0.18
546,3346015,Sumbe,55,AO,1594513183,86,-11.21,13.84,20.7,1.24
547,3380290,Sinnamary,13,GF,1594513183,85,5.38,-52.95,26.17,4.38
548,2176632,Bathurst,78,AU,1594513183,86,-33.42,149.58,10.0,0.51
549,2032201,Bulgan,98,MN,1594513183,72,48.81,103.53,17.08,0.84
550,1636426,Manggar,47,ID,1594513184,82,-2.88,108.27,27.18,3.57
551,3985797,San Julián,68,MX,1594513184,48,21.02,-102.17,24.25,4.67
552,2191911,Dargaville,57,NZ,1594512939,65,-35.93,173.88,14.58,4.26
553,2068110,Kununurra,64,AU,1594513185,20,-15.77,128.73,25.0,3.6
554,1636308,Manokwari,100,ID,1594513185,84,-0.87,134.08,24.99,4.7
555,4676798,Brownwood,1,US,1594513186,22,31.71,-98.99,39.0,3.1
556,5670128,Orchard Homes,1,US,1594513001,21,46.86,-114.05,32.0,2.1
557,2128815,Obihiro,75,JP,1594512995,100,42.92,143.2,15.0,1.5
558,1259385,Port Blair,100,IN,1594512803,81,11.67,92.75,27.82,4.16
559,6087579,New Glasgow,97,CA,1594512978,93,45.58,-62.65,21.11,2.24
560,1608232,Nong Khai,90,TH,1594513187,100,17.88,102.74,27.0,2.1
561,3995010,Nazareno,40,MX,1594513188,14,25.38,-103.42,37.0,4.1
562,368246,Raja,73,SS,1594513188,95,8.46,25.68,20.22,1.26
